[{"id":1,"station_id":"PST1100","station_name":"Central Station","station_lat":-33.8827026104032,"station_lon":151.205857239232},{"id":2,"station_id":"PST1101","station_name":"Town Hall Station","station_lat":-33.8736540436588,"station_lon":151.206989573841},{"id":3,"station_id":"PST1103","station_name":"Circular Quay Station","station_lat":-33.8613693916357,"station_lon":151.210273928748},{"id":4,"station_id":"PST1104","station_name":"Museum Station","station_lat":-33.876152660443,"station_lon":151.209802055193},{"id":5,"station_id":"PST1105","station_name":"St James Station","station_lat":-33.8706629330113,"station_lon":151.211724684041},{"id":6,"station_id":"PST1106","station_name":"Martin Place Station","station_lat":-33.8679211680579,"station_lon":151.21180580772},{"id":7,"station_id":"PST1107","station_name":"Kings Cross Station","station_lat":-33.8743431020425,"station_lon":151.221854025373},{"id":8,"station_id":"PST1108","station_name":"Edgecliff Station","station_lat":-33.8792727650037,"station_lon":151.235967170581},{"id":9,"station_id":"PST1109","station_name":"Bondi Junction Station","station_lat":-33.8912539642706,"station_lon":151.248293145853},{"id":10,"station_id":"PST1111","station_name":"Milsons Point Station","station_lat":-33.8455346603664,"station_lon":151.211720050181},{"id":11,"station_id":"PST1112","station_name":"North Sydney Station","station_lat":-33.841173347575,"station_lon":151.207521446863},{"id":12,"station_id":"PST1113","station_name":"Waverton Station","station_lat":-33.8378114094005,"station_lon":151.197531107107},{"id":13,"station_id":"PST1114","station_name":"Wollstonecraft Station","station_lat":-33.8320048228398,"station_lon":151.191837810938},{"id":14,"station_id":"PST1116","station_name":"Artarmon Station","station_lat":-33.8085668269509,"station_lon":151.184777633712},{"id":15,"station_id":"PST1117","station_name":"Chatswood Station","station_lat":-33.7974762545413,"station_lon":151.181042438872},{"id":16,"station_id":"PST1118","station_name":"Roseville Station","station_lat":-33.7843236154483,"station_lon":151.177531775036},{"id":17,"station_id":"PST1119","station_name":"Lindfield Station","station_lat":-33.7753943300997,"station_lon":151.169296882051},{"id":18,"station_id":"PST1120","station_name":"Killara Station","station_lat":-33.7655832347721,"station_lon":151.161808616246},{"id":19,"station_id":"PST1121","station_name":"Gordon Station","station_lat":-33.7556804985313,"station_lon":151.154350096899},{"id":20,"station_id":"PST1122","station_name":"Pymble Station","station_lat":-33.7447026444656,"station_lon":151.142139065332},{"id":21,"station_id":"PST1123","station_name":"Turramurra Station","station_lat":-33.7324535786708,"station_lon":151.128565363567},{"id":22,"station_id":"PST1124","station_name":"Warrawee Station","station_lat":-33.7242819756132,"station_lon":151.121811384329},{"id":23,"station_id":"PST1125","station_name":"Wahroonga Station","station_lat":-33.7178523390519,"station_lon":151.117384728527},{"id":24,"station_id":"PST1126","station_name":"Waitara Station","station_lat":-33.710244200625,"station_lon":151.104784105814},{"id":25,"station_id":"PST1127","station_name":"Hornsby Station","station_lat":-33.7032420188769,"station_lon":151.098585827969},{"id":26,"station_id":"PST1128","station_name":"Asquith Station","station_lat":-33.688613438102,"station_lon":151.108205374966},{"id":27,"station_id":"PST1129","station_name":"Mount Colah Station","station_lat":-33.6714382244494,"station_lon":151.11500616206},{"id":28,"station_id":"PST1130","station_name":"Mount Kuring-gai Station","station_lat":-33.6534785948477,"station_lon":151.136894035236},{"id":29,"station_id":"PST1131","station_name":"Berowra Station","station_lat":-33.6235280218233,"station_lon":151.153273713189},{"id":30,"station_id":"PST1132","station_name":"Cowan Station","station_lat":-33.5934753642703,"station_lon":151.171823642586},{"id":31,"station_id":"PST1133","station_name":"Hawkesbury River Station","station_lat":-33.54694459236,"station_lon":151.22651584781},{"id":32,"station_id":"PST1134","station_name":"Wondabyne Station","station_lat":-33.4922175447787,"station_lon":151.257002975005},{"id":33,"station_id":"PST1135","station_name":"Woy Woy Station","station_lat":-33.4851763545747,"station_lon":151.323633620722},{"id":34,"station_id":"PST1136","station_name":"Koolewong Station","station_lat":-33.4662549670589,"station_lon":151.318510484759},{"id":35,"station_id":"PST1137","station_name":"Tascott Station","station_lat":-33.4508954554244,"station_lon":151.318714920711},{"id":36,"station_id":"PST1138","station_name":"Point Clare Station","station_lat":-33.4462305276143,"station_lon":151.328456709699},{"id":37,"station_id":"PST1139","station_name":"Gosford Station","station_lat":-33.4235014327389,"station_lon":151.341777401688},{"id":38,"station_id":"PST1140","station_name":"Narara Station","station_lat":-33.3947117591594,"station_lon":151.344467007825},{"id":39,"station_id":"PST1141","station_name":"Niagara Park Station","station_lat":-33.383169957485,"station_lon":151.354491450134},{"id":40,"station_id":"PST1142","station_name":"Lisarow Station","station_lat":-33.3822062333083,"station_lon":151.370090124913},{"id":41,"station_id":"PST1143","station_name":"Ourimbah Station","station_lat":-33.35968460108,"station_lon":151.370035558443},{"id":42,"station_id":"PST1144","station_name":"Tuggerah Station","station_lat":-33.307703283903,"station_lon":151.420279370728},{"id":43,"station_id":"PST1145","station_name":"Wyong Station","station_lat":-33.2854680879325,"station_lon":151.425345210428},{"id":44,"station_id":"PST1146","station_name":"Warnervale Station","station_lat":-33.2474300993742,"station_lon":151.448813064662},{"id":45,"station_id":"PST1147","station_name":"Wyee Station","station_lat":-33.180168251104,"station_lon":151.48713334294},{"id":46,"station_id":"PST1148","station_name":"Morisset Station","station_lat":-33.1090243475133,"station_lon":151.488130564807},{"id":47,"station_id":"PST1149","station_name":"Dora Creek Station","station_lat":-33.0838764203945,"station_lon":151.500954844536},{"id":48,"station_id":"PST1150","station_name":"Awaba Station","station_lat":-33.0130256932891,"station_lon":151.542019174705},{"id":49,"station_id":"PST1151","station_name":"Fassifern Station","station_lat":-32.9854892501077,"station_lon":151.581053435342},{"id":50,"station_id":"PST1152","station_name":"Booragul Station","station_lat":-32.9716190115796,"station_lon":151.60492724987},{"id":51,"station_id":"PST1153","station_name":"Teralba Station","station_lat":-32.9624489712119,"station_lon":151.60369176421},{"id":52,"station_id":"PST1155","station_name":"Cockle Creek Station","station_lat":-32.9427118436311,"station_lon":151.623884268407},{"id":53,"station_id":"PST1157","station_name":"Cardiff Station","station_lat":-32.9415099663291,"station_lon":151.662687577362},{"id":54,"station_id":"PST1158","station_name":"Kotara Station","station_lat":-32.9416006225689,"station_lon":151.697946650106},{"id":55,"station_id":"PST1159","station_name":"Adamstown Station","station_lat":-32.9336878839925,"station_lon":151.720226585862},{"id":56,"station_id":"PST1160","station_name":"Broadmeadow Station","station_lat":-32.9228527323154,"station_lon":151.734923126949},{"id":57,"station_id":"PST1161","station_name":"Hamilton Station","station_lat":-32.9185772614775,"station_lon":151.748578857758},{"id":58,"station_id":"PST1167","station_name":"Waratah Station","station_lat":-32.9022502913994,"station_lon":151.731165126917},{"id":59,"station_id":"PST1168","station_name":"Warabrook (University) Station","station_lat":-32.8873188888903,"station_lon":151.710116741344},{"id":60,"station_id":"PST1169","station_name":"Sandgate Station","station_lat":-32.8723242816717,"station_lon":151.702853152789},{"id":61,"station_id":"PST1170","station_name":"Hexham Station","station_lat":-32.8289664120392,"station_lon":151.684215889061},{"id":62,"station_id":"PST1171","station_name":"Tarro Station","station_lat":-32.8090083158231,"station_lon":151.669672433881},{"id":63,"station_id":"PST1172","station_name":"Beresfield Station","station_lat":-32.7992022073892,"station_lon":151.658225964904},{"id":64,"station_id":"PST1173","station_name":"Thornton Station","station_lat":-32.7835870794333,"station_lon":151.639920896355},{"id":65,"station_id":"PST1174","station_name":"Metford Station","station_lat":-32.7650710614631,"station_lon":151.618124292282},{"id":66,"station_id":"PST1175","station_name":"Victoria Street Station","station_lat":-32.75092854402,"station_lon":151.593886267415},{"id":67,"station_id":"PST1176","station_name":"East Maitland Station","station_lat":-32.7448589217608,"station_lon":151.587444633264},{"id":68,"station_id":"PST1177","station_name":"High Street Station","station_lat":-32.7414300427425,"station_lon":151.563956008677},{"id":69,"station_id":"PST1178","station_name":"Maitland Station","station_lat":-32.7378882740427,"station_lon":151.552124494145},{"id":70,"station_id":"PST1179","station_name":"Telarah Station","station_lat":-32.7234270188014,"station_lon":151.53978186676},{"id":71,"station_id":"PST1180","station_name":"Mindaribba Station","station_lat":-32.6683307866108,"station_lon":151.584469794275},{"id":72,"station_id":"PST1181","station_name":"Paterson Station","station_lat":-32.6023213870172,"station_lon":151.6147287454},{"id":73,"station_id":"PST1182","station_name":"Martins Creek Station","station_lat":-32.5586338342431,"station_lon":151.618528583041},{"id":74,"station_id":"PST1183","station_name":"Hilldale Station","station_lat":-32.5045653229923,"station_lon":151.649733127948},{"id":75,"station_id":"PST1184","station_name":"Wallarobba Station","station_lat":-32.4961360226103,"station_lon":151.695654540791},{"id":76,"station_id":"PST1185","station_name":"Wirragulla Station","station_lat":-32.4629951533362,"station_lon":151.742403621234},{"id":77,"station_id":"PST1186","station_name":"Dungog Station","station_lat":-32.4024300744927,"station_lon":151.759444052423},{"id":78,"station_id":"PST1187","station_name":"Lochinvar Station","station_lat":-32.7204530011042,"station_lon":151.450277747921},{"id":79,"station_id":"PST1188","station_name":"Greta Station","station_lat":-32.6867461522493,"station_lon":151.384208798192},{"id":80,"station_id":"PST1189","station_name":"Branxton Station","station_lat":-32.6621891669627,"station_lon":151.345578203288},{"id":81,"station_id":"PST1190","station_name":"Singleton Station","station_lat":-32.572048600191,"station_lon":151.165615281218},{"id":82,"station_id":"PST1191","station_name":"Muswellbrook Station","station_lat":-32.2674894008151,"station_lon":150.890408538245},{"id":83,"station_id":"PST1192","station_name":"Aberdeen Station","station_lat":-32.1669688461449,"station_lon":150.892015021998},{"id":84,"station_id":"PST1193","station_name":"Scone Station","station_lat":-32.0467613956657,"station_lon":150.866954368112},{"id":85,"station_id":"PST1194","station_name":"Normanhurst Station","station_lat":-33.720758645274,"station_lon":151.097219828459},{"id":86,"station_id":"PST1195","station_name":"Thornleigh Station","station_lat":-33.7319355238275,"station_lon":151.07835102385},{"id":87,"station_id":"PST1196","station_name":"Pennant Hills Station","station_lat":-33.7378541142225,"station_lon":151.072667409529},{"id":88,"station_id":"PST1197","station_name":"Beecroft Station","station_lat":-33.7494360482969,"station_lon":151.066560486215},{"id":89,"station_id":"PST1198","station_name":"Cheltenham Station","station_lat":-33.7556342230974,"station_lon":151.078590190872},{"id":90,"station_id":"PST1199","station_name":"Eastwood Station","station_lat":-33.7901443519922,"station_lon":151.08239768207},{"id":91,"station_id":"PST1200","station_name":"Denistone Station","station_lat":-33.7995834750495,"station_lon":151.087131273046},{"id":92,"station_id":"PST1201","station_name":"West Ryde Station","station_lat":-33.8071731906616,"station_lon":151.090299084518},{"id":93,"station_id":"PST1202","station_name":"Meadowbank Station","station_lat":-33.8158997217291,"station_lon":151.090164581445},{"id":94,"station_id":"PST1203","station_name":"Rhodes Station","station_lat":-33.8308222432617,"station_lon":151.087140659537},{"id":95,"station_id":"PST1204","station_name":"Concord West Station, Platform 2","station_lat":-33.8483143141632,"station_lon":151.08569628815},{"id":96,"station_id":"PST1205","station_name":"North Strathfield Station","station_lat":-33.8590617697652,"station_lon":151.08819617003},{"id":97,"station_id":"PST1206","station_name":"Strathfield Station","station_lat":-33.8713139676728,"station_lon":151.094214512491},{"id":98,"station_id":"PST1207","station_name":"Burwood Station","station_lat":-33.8769789818701,"station_lon":151.104294175253},{"id":99,"station_id":"PST1209","station_name":"Ashfield Station","station_lat":-33.8875229960631,"station_lon":151.125780877352},{"id":100,"station_id":"PST1211","station_name":"Lewisham Station","station_lat":-33.8932811029743,"station_lon":151.147462119754},{"id":101,"station_id":"PST1212","station_name":"Petersham Station","station_lat":-33.8938709588753,"station_lon":151.155345520147},{"id":102,"station_id":"PST1214","station_name":"Newtown Station","station_lat":-33.89789687807,"station_lon":151.179851991581},{"id":103,"station_id":"PST1215","station_name":"Macdonaldtown Station","station_lat":-33.8969103256996,"station_lon":151.185811140429},{"id":104,"station_id":"PST1217","station_name":"Flemington Station","station_lat":-33.8650252412295,"station_lon":151.070572632032},{"id":105,"station_id":"PST1218","station_name":"Lidcombe Station","station_lat":-33.8636046621393,"station_lon":151.045068659089},{"id":106,"station_id":"PST1219","station_name":"Auburn Station","station_lat":-33.849233586274,"station_lon":151.032964393006},{"id":107,"station_id":"PST1220","station_name":"Clyde Station","station_lat":-33.8358374881197,"station_lon":151.017174112283},{"id":108,"station_id":"PST1221","station_name":"Rosehill Station","station_lat":-33.8229705713679,"station_lon":151.022131344255},{"id":109,"station_id":"PST1222","station_name":"Camellia Station","station_lat":-33.8189653201667,"station_lon":151.024199807832},{"id":110,"station_id":"PST1223","station_name":"Rydalmere Station","station_lat":-33.8100527901927,"station_lon":151.029189795073},{"id":111,"station_id":"PST1224","station_name":"Dundas Station","station_lat":-33.8038855732101,"station_lon":151.033163735826},{"id":112,"station_id":"PST1225","station_name":"Telopea Station","station_lat":-33.7939102873043,"station_lon":151.041426097997},{"id":113,"station_id":"PST1226","station_name":"Carlingford Station","station_lat":-33.7821194848255,"station_lon":151.047065194826},{"id":114,"station_id":"PST1227","station_name":"Granville Station","station_lat":-33.8328277192224,"station_lon":151.012206666155},{"id":115,"station_id":"PST1228","station_name":"Harris Park Station","station_lat":-33.8235495579772,"station_lon":151.007691613149},{"id":116,"station_id":"PST1229","station_name":"Parramatta Station","station_lat":-33.817301659164,"station_lon":151.005305396386},{"id":117,"station_id":"PST1230","station_name":"Westmead Station","station_lat":-33.8083114819372,"station_lon":150.987733534175},{"id":118,"station_id":"PST1231","station_name":"Wentworthville Station","station_lat":-33.8070259651845,"station_lon":150.972583417213},{"id":119,"station_id":"PST1232","station_name":"Pendle Hill Station","station_lat":-33.8014404584488,"station_lon":150.956587787147},{"id":120,"station_id":"PST1233","station_name":"Toongabbie Station","station_lat":-33.7873005456908,"station_lon":150.95158715488},{"id":121,"station_id":"PST1234","station_name":"Seven Hills Station","station_lat":-33.7742206101174,"station_lon":150.935976253957},{"id":122,"station_id":"PST1235","station_name":"Blacktown Station","station_lat":-33.7681540474539,"station_lon":150.908012193651},{"id":123,"station_id":"PST1236","station_name":"Marayong Station","station_lat":-33.7462066086715,"station_lon":150.900208295775},{"id":124,"station_id":"PST1237","station_name":"Quakers Hill Station","station_lat":-33.7277070253301,"station_lon":150.886493037051},{"id":125,"station_id":"PST1238","station_name":"Schofields Station","station_lat":-33.7046635114343,"station_lon":150.873938291747},{"id":126,"station_id":"PST1239","station_name":"Riverstone Station","station_lat":-33.67909180388,"station_lon":150.860339904694},{"id":127,"station_id":"PST1240","station_name":"Vineyard Station","station_lat":-33.6504510086737,"station_lon":150.851182249702},{"id":128,"station_id":"PST1241","station_name":"Mulgrave Station","station_lat":-33.6265218593879,"station_lon":150.830143816569},{"id":129,"station_id":"PST1242","station_name":"Windsor Station","station_lat":-33.6137108235737,"station_lon":150.81109363891},{"id":130,"station_id":"PST1243","station_name":"Clarendon Station","station_lat":-33.6085474643914,"station_lon":150.787936340192},{"id":131,"station_id":"PST1244","station_name":"East Richmond Station","station_lat":-33.6017614843362,"station_lon":150.75902468169},{"id":132,"station_id":"PST1245","station_name":"Richmond Station","station_lat":-33.5988515033815,"station_lon":150.752770574011},{"id":133,"station_id":"PST1246","station_name":"Doonside Station","station_lat":-33.7637642101732,"station_lon":150.868928137603},{"id":134,"station_id":"PST1247","station_name":"Rooty Hill Station","station_lat":-33.7715457609811,"station_lon":150.844589971531},{"id":135,"station_id":"PST1248","station_name":"Mount Druitt Station","station_lat":-33.7694157545169,"station_lon":150.819482906536},{"id":136,"station_id":"PST1249","station_name":"St Marys Station","station_lat":-33.7620479705334,"station_lon":150.775490535683},{"id":137,"station_id":"PST1250","station_name":"Werrington Station","station_lat":-33.759120113565,"station_lon":150.757764697711},{"id":138,"station_id":"PST1251","station_name":"Kingswood Station","station_lat":-33.7582370610576,"station_lon":150.720028359399},{"id":139,"station_id":"PST1252","station_name":"Penrith Station","station_lat":-33.7499513014481,"station_lon":150.696183709825},{"id":140,"station_id":"PST1253","station_name":"Emu Plains Station","station_lat":-33.7456620097605,"station_lon":150.671435263436},{"id":141,"station_id":"PST1254","station_name":"Lapstone Station","station_lat":-33.7735047914079,"station_lon":150.642742216361},{"id":142,"station_id":"PST1255","station_name":"Glenbrook Station","station_lat":-33.7690819991963,"station_lon":150.620950922895},{"id":143,"station_id":"PST1256","station_name":"Blaxland Station","station_lat":-33.7436984413495,"station_lon":150.609741733654},{"id":144,"station_id":"PST1257","station_name":"Warrimoo Station","station_lat":-33.7213310868396,"station_lon":150.602602481077},{"id":145,"station_id":"PST1258","station_name":"Valley Heights Station","station_lat":-33.7043771504107,"station_lon":150.583777871629},{"id":146,"station_id":"PST1259","station_name":"Springwood Station","station_lat":-33.6989745946646,"station_lon":150.563691715392},{"id":147,"station_id":"PST1260","station_name":"Faulconbridge Station","station_lat":-33.6964927377097,"station_lon":150.534983440846},{"id":148,"station_id":"PST1261","station_name":"Linden Station","station_lat":-33.7148954922503,"station_lon":150.505335914629},{"id":149,"station_id":"PST1262","station_name":"Woodford Station","station_lat":-33.7356135796161,"station_lon":150.48187493681},{"id":150,"station_id":"PST1263","station_name":"Hazelbrook Station","station_lat":-33.7237452741079,"station_lon":150.454246255455},{"id":151,"station_id":"PST1264","station_name":"Lawson Station","station_lat":-33.7190630874709,"station_lon":150.42985538291},{"id":152,"station_id":"PST1265","station_name":"Bullaburra Station","station_lat":-33.7234357500904,"station_lon":150.414863909848},{"id":153,"station_id":"PST1266","station_name":"Wentworth Falls Station","station_lat":-33.7097385520189,"station_lon":150.376445069564},{"id":154,"station_id":"PST1267","station_name":"Leura Station","station_lat":-33.7120147227098,"station_lon":150.330837379779},{"id":155,"station_id":"PST1268","station_name":"Katoomba Station","station_lat":-33.7119561279167,"station_lon":150.311583308495},{"id":156,"station_id":"PST1269","station_name":"Medlow Bath Station","station_lat":-33.6736876901292,"station_lon":150.280747674899},{"id":157,"station_id":"PST1270","station_name":"Blackheath Station","station_lat":-33.6336327151629,"station_lon":150.284409621303},{"id":158,"station_id":"PST1271","station_name":"Mount Victoria Station","station_lat":-33.5881002789199,"station_lon":150.256973312579},{"id":159,"station_id":"PST1272","station_name":"Bell Station","station_lat":-33.5058428373452,"station_lon":150.279041843332},{"id":160,"station_id":"PST1273","station_name":"Zig Zag Station","station_lat":-33.471890169115,"station_lon":150.202137810636},{"id":161,"station_id":"PST1274","station_name":"Lithgow Station","station_lat":-33.4805567664047,"station_lon":150.157051584654},{"id":162,"station_id":"PST1281","station_name":"Bathurst Station","station_lat":-33.425650349105,"station_lon":149.583246680631},{"id":163,"station_id":"PST1282","station_name":"Merrylands Station","station_lat":-33.8365468783896,"station_lon":150.992598993232},{"id":164,"station_id":"PST1283","station_name":"Guildford Station","station_lat":-33.854292213179,"station_lon":150.984440052135},{"id":165,"station_id":"PST1284","station_name":"Yennora Station","station_lat":-33.8646839379594,"station_lon":150.970989455921},{"id":166,"station_id":"PST1285","station_name":"Fairfield Station","station_lat":-33.8723533841574,"station_lon":150.956966872617},{"id":167,"station_id":"PST1286","station_name":"Canley Vale Station","station_lat":-33.8872555366355,"station_lon":150.943555922799},{"id":168,"station_id":"PST1287","station_name":"Cabramatta Station","station_lat":-33.8950874832819,"station_lon":150.938730257016},{"id":169,"station_id":"PST1288","station_name":"Warwick Farm Station","station_lat":-33.912991273372,"station_lon":150.935102147008},{"id":170,"station_id":"PST1289","station_name":"Liverpool Station","station_lat":-33.9247391214828,"station_lon":150.927287411974},{"id":171,"station_id":"PST1290","station_name":"Casula Station","station_lat":-33.9502942514997,"station_lon":150.911746240331},{"id":172,"station_id":"PST1291","station_name":"Glenfield Station","station_lat":-33.9720511964776,"station_lon":150.893167552162},{"id":173,"station_id":"PST1291","station_name":"Glenfield Station, Platform 4","station_lat":-33.9721447003808,"station_lon":150.893344870415},{"id":174,"station_id":"PST1292","station_name":"Macquarie Fields Station","station_lat":-33.9848424442202,"station_lon":150.878780426338},{"id":175,"station_id":"PST1293","station_name":"Ingleburn Station","station_lat":-33.997298146493,"station_lon":150.864698416539},{"id":176,"station_id":"PST1294","station_name":"Minto Station","station_lat":-34.0273542259573,"station_lon":150.842468647372},{"id":177,"station_id":"PST1295","station_name":"Leumeah Station","station_lat":-34.0507159801347,"station_lon":150.830500220998},{"id":178,"station_id":"PST1296","station_name":"Campbelltown Station","station_lat":-34.0635374269872,"station_lon":150.814349151015},{"id":179,"station_id":"PST1297","station_name":"Macarthur Station","station_lat":-34.0719033585084,"station_lon":150.797095319357},{"id":180,"station_id":"PST1298","station_name":"Menangle Park Station","station_lat":-34.1036689525026,"station_lon":150.744903079208},{"id":181,"station_id":"PST1299","station_name":"Menangle Station","station_lat":-34.1251778663115,"station_lon":150.744368007559},{"id":182,"station_id":"PST1300","station_name":"Douglas Park Station","station_lat":-34.1832093336117,"station_lon":150.710391236349},{"id":183,"station_id":"PST1301","station_name":"Picton Station","station_lat":-34.1791023333134,"station_lon":150.612589618337},{"id":184,"station_id":"PST1302","station_name":"Tahmoor Station","station_lat":-34.223383740293,"station_lon":150.590027395836},{"id":185,"station_id":"PST1303","station_name":"Bargo Station","station_lat":-34.291075906904,"station_lon":150.580084498263},{"id":186,"station_id":"PST1304","station_name":"Yerrinbool Station","station_lat":-34.3717190660869,"station_lon":150.543454799021},{"id":187,"station_id":"PST1305","station_name":"Mittagong Station","station_lat":-34.4525325177731,"station_lon":150.44830203471},{"id":188,"station_id":"PST1306","station_name":"Bowral Station","station_lat":-34.4781918857904,"station_lon":150.416524747785},{"id":189,"station_id":"PST1307","station_name":"Burradoo Station","station_lat":-34.4941194864414,"station_lon":150.398028060208},{"id":190,"station_id":"PST1308","station_name":"Moss Vale Station","station_lat":-34.5478548136645,"station_lon":150.371610296383},{"id":191,"station_id":"PST1309","station_name":"Exeter Station","station_lat":-34.6135457738741,"station_lon":150.317461853832},{"id":192,"station_id":"PST1310","station_name":"Bundanoon Station","station_lat":-34.6559350774409,"station_lon":150.299432445769},{"id":193,"station_id":"PST1311","station_name":"Penrose Station","station_lat":-34.6723615120386,"station_lon":150.211916922291},{"id":194,"station_id":"PST1312","station_name":"Wingello Station","station_lat":-34.6921207123382,"station_lon":150.158404608757},{"id":195,"station_id":"PST1313","station_name":"Tallong Station","station_lat":-34.7182862327138,"station_lon":150.086352536566},{"id":196,"station_id":"PST1314","station_name":"Marulan Station","station_lat":-34.7094512076745,"station_lon":150.006477096849},{"id":197,"station_id":"PST1315","station_name":"Goulburn Station","station_lat":-34.7581540060081,"station_lon":149.719425934933},{"id":198,"station_id":"PST1324","station_name":"Erskineville Station","station_lat":-33.9002514859508,"station_lon":151.185326392167},{"id":199,"station_id":"PST1326","station_name":"Sydenham Station","station_lat":-33.9141336678137,"station_lon":151.166553805239},{"id":200,"station_id":"PST1328","station_name":"Wolli Creek Station","station_lat":-33.9285340906555,"station_lon":151.154501784764},{"id":201,"station_id":"PST1329","station_name":"Green Square Station","station_lat":-33.9060706585781,"station_lon":151.202533035061},{"id":202,"station_id":"PST1330","station_name":"Mascot Station","station_lat":-33.9231804165273,"station_lon":151.187216709235},{"id":203,"station_id":"PST1331","station_name":"Domestic Airport Station","station_lat":-33.9335718356187,"station_lon":151.180775782625},{"id":204,"station_id":"PST1332","station_name":"International Airport Station","station_lat":-33.9349169396224,"station_lon":151.165838044172},{"id":205,"station_id":"PST1333","station_name":"Arncliffe Station","station_lat":-33.936469448285,"station_lon":151.14710475032},{"id":206,"station_id":"PST1334","station_name":"Banksia Station","station_lat":-33.9450479351079,"station_lon":151.140397043474},{"id":207,"station_id":"PST1336","station_name":"Kogarah Station","station_lat":-33.9627024050907,"station_lon":151.132257091752},{"id":208,"station_id":"PST1337","station_name":"Carlton Station","station_lat":-33.9681594985147,"station_lon":151.124302845712},{"id":209,"station_id":"PST1338","station_name":"Allawah Station","station_lat":-33.9695140992193,"station_lon":151.114267896886},{"id":210,"station_id":"PST1339","station_name":"Hurstville Station","station_lat":-33.9673646780046,"station_lon":151.102831173288},{"id":211,"station_id":"PST1340","station_name":"Penshurst Station","station_lat":-33.9661517831758,"station_lon":151.088941879657},{"id":212,"station_id":"PST1341","station_name":"Mortdale Station","station_lat":-33.9709657814395,"station_lon":151.081007684742},{"id":213,"station_id":"PST1342","station_name":"Oatley Station","station_lat":-33.9804037696683,"station_lon":151.078982594837},{"id":214,"station_id":"PST1343","station_name":"Como Station","station_lat":-34.0044185658256,"station_lon":151.068047567574},{"id":215,"station_id":"PST1344","station_name":"Jannali Station","station_lat":-34.015797873134,"station_lon":151.064533546776},{"id":216,"station_id":"PST1345","station_name":"Sutherland Station","station_lat":-34.0316562628283,"station_lon":151.057174077859},{"id":217,"station_id":"PST1346","station_name":"Kirrawee Station","station_lat":-34.0349994386484,"station_lon":151.071587158989},{"id":218,"station_id":"PST1347","station_name":"Gymea Station","station_lat":-34.0349357113038,"station_lon":151.085437229729},{"id":219,"station_id":"PST1348","station_name":"Miranda Station","station_lat":-34.036323465001,"station_lon":151.102181882961},{"id":220,"station_id":"PST1349","station_name":"Caringbah Station","station_lat":-34.0416138551669,"station_lon":151.122308836923},{"id":221,"station_id":"PST1350","station_name":"Woolooware Station","station_lat":-34.047653167571,"station_lon":151.143903410452},{"id":222,"station_id":"PST1351","station_name":"Cronulla Station","station_lat":-34.0555271853125,"station_lon":151.151388423297},{"id":223,"station_id":"PST1352","station_name":"Loftus Station","station_lat":-34.045170044244,"station_lon":151.051226701767},{"id":224,"station_id":"PST1353","station_name":"Engadine Station","station_lat":-34.0678346300997,"station_lon":151.01466078446},{"id":225,"station_id":"PST1354","station_name":"Heathcote Station","station_lat":-34.0878942683703,"station_lon":151.008255454038},{"id":226,"station_id":"PST1355","station_name":"Waterfall Station","station_lat":-34.1347298713387,"station_lon":150.994485817446},{"id":227,"station_id":"PST1356","station_name":"Helensburgh Station","station_lat":-34.1770249930514,"station_lon":150.994497022171},{"id":228,"station_id":"PST1357","station_name":"Otford Station","station_lat":-34.2106915215022,"station_lon":151.005707506351},{"id":229,"station_id":"PST1358","station_name":"Stanwell Park Station","station_lat":-34.2263635040223,"station_lon":150.981034205183},{"id":230,"station_id":"PST1359","station_name":"Coalcliff Station","station_lat":-34.2422003310238,"station_lon":150.977267284291},{"id":231,"station_id":"PST1360","station_name":"Scarborough Station","station_lat":-34.2653720136403,"station_lon":150.965433711969},{"id":232,"station_id":"PST1361","station_name":"Wombarra Station","station_lat":-34.2754909076502,"station_lon":150.953459667654},{"id":233,"station_id":"PST1363","station_name":"Austinmer Station","station_lat":-34.3064876176642,"station_lon":150.929125446867},{"id":234,"station_id":"PST1364","station_name":"Thirroul Station","station_lat":-34.3180543925267,"station_lon":150.918826959643},{"id":235,"station_id":"PST1365","station_name":"Bulli Station","station_lat":-34.3342778260767,"station_lon":150.914759662809},{"id":236,"station_id":"PST1366","station_name":"Woonona Station","station_lat":-34.3495476787773,"station_lon":150.915144484615},{"id":237,"station_id":"PST1367","station_name":"Bellambi Station","station_lat":-34.3627401104238,"station_lon":150.910054365251},{"id":238,"station_id":"PST1368","station_name":"Corrimal Station","station_lat":-34.3755268424288,"station_lon":150.904965712846},{"id":239,"station_id":"PST1369","station_name":"Towradgi Station","station_lat":-34.3843202700689,"station_lon":150.901331407078},{"id":240,"station_id":"PST1370","station_name":"Fairy Meadow Station","station_lat":-34.395282725751,"station_lon":150.896362274491},{"id":241,"station_id":"PST1371","station_name":"North Wollongong Station","station_lat":-34.4123563984067,"station_lon":150.891327502228},{"id":242,"station_id":"PST1372","station_name":"Wollongong Station","station_lat":-34.4272287677704,"station_lon":150.888070229384},{"id":243,"station_id":"PST1373","station_name":"Coniston Station","station_lat":-34.4377363098952,"station_lon":150.885207892342},{"id":244,"station_id":"PST1374","station_name":"Lysaghts Station","station_lat":-34.4548239201317,"station_lon":150.876036130172},{"id":245,"station_id":"PST1375","station_name":"Cringila Station","station_lat":-34.4671759693759,"station_lon":150.878359512159},{"id":246,"station_id":"PST1376","station_name":"Port Kembla North Station","station_lat":-34.4726993661847,"station_lon":150.887428437514},{"id":247,"station_id":"PST1377","station_name":"Port Kembla Station","station_lat":-34.4771700597678,"station_lon":150.902629835686},{"id":248,"station_id":"PST1378","station_name":"Unanderra Station","station_lat":-34.4548048479689,"station_lon":150.845870444892},{"id":249,"station_id":"PST1379","station_name":"Kembla Grange Station","station_lat":-34.4701378411207,"station_lon":150.817568169486},{"id":250,"station_id":"PST1381","station_name":"Albion Park Station","station_lat":-34.5629457984229,"station_lon":150.798685471924},{"id":251,"station_id":"PST1382","station_name":"Oak Flats Station","station_lat":-34.5719821613291,"station_lon":150.820361338449},{"id":252,"station_id":"PST1384","station_name":"Minnamurra Station","station_lat":-34.6261563854677,"station_lon":150.85265949202},{"id":253,"station_id":"PST1385","station_name":"Bombo Station","station_lat":-34.6586117925111,"station_lon":150.853835971094},{"id":254,"station_id":"PST1386","station_name":"Kiama Station","station_lat":-34.6725177586148,"station_lon":150.854611783126},{"id":255,"station_id":"PST1387","station_name":"Gerringong Station","station_lat":-34.7446965842011,"station_lon":150.817652878471},{"id":256,"station_id":"PST1388","station_name":"Berry Station","station_lat":-34.7803141324119,"station_lon":150.696725473771},{"id":257,"station_id":"PST1389","station_name":"Bomaderry Station","station_lat":-34.8537348754317,"station_lon":150.609913637718},{"id":258,"station_id":"PST1390","station_name":"Berala Station","station_lat":-33.87182268072,"station_lon":151.032429501581},{"id":259,"station_id":"PST1391","station_name":"Regents Park Station","station_lat":-33.8830530315597,"station_lon":151.024078025497},{"id":260,"station_id":"PST1392","station_name":"Marrickville Station","station_lat":-33.9138392244049,"station_lon":151.153419883902},{"id":261,"station_id":"PST1393","station_name":"Dulwich Hill Station","station_lat":-33.9109876753438,"station_lon":151.140994214653},{"id":262,"station_id":"PST1394","station_name":"Hurlstone Park Station","station_lat":-33.9103004438958,"station_lon":151.132229218214},{"id":263,"station_id":"PST1395","station_name":"Canterbury Station","station_lat":-33.9119738534546,"station_lon":151.118607054655},{"id":264,"station_id":"PST1396","station_name":"Campsie Station","station_lat":-33.910456989137,"station_lon":151.103069556141},{"id":265,"station_id":"PST1397","station_name":"Belmore Station","station_lat":-33.9171663085213,"station_lon":151.088563573965},{"id":266,"station_id":"PST1398","station_name":"Lakemba Station","station_lat":-33.9200450069298,"station_lon":151.075947773788},{"id":267,"station_id":"PST1399","station_name":"Wiley Park Station","station_lat":-33.9228473458418,"station_lon":151.067510321162},{"id":268,"station_id":"PST1400","station_name":"Punchbowl Station","station_lat":-33.925383487735,"station_lon":151.055654842124},{"id":269,"station_id":"PST1401","station_name":"Bankstown Station","station_lat":-33.9178196448619,"station_lon":151.034414815978},{"id":270,"station_id":"PST1402","station_name":"Yagoona Station","station_lat":-33.9070775806363,"station_lon":151.024560043824},{"id":271,"station_id":"PST1403","station_name":"Birrong Station","station_lat":-33.8927150435081,"station_lon":151.024273170608},{"id":272,"station_id":"PST1404","station_name":"Sefton Station","station_lat":-33.8852279222037,"station_lon":151.011561252805},{"id":273,"station_id":"PST1405","station_name":"Chester Hill Station","station_lat":-33.8836343637045,"station_lon":151.000174925201},{"id":274,"station_id":"PST1406","station_name":"Leightonfield Station","station_lat":-33.8814806455002,"station_lon":150.985186846519},{"id":275,"station_id":"PST1407","station_name":"Villawood Station","station_lat":-33.88082033806,"station_lon":150.976632052005},{"id":276,"station_id":"PST1408","station_name":"Carramar Station","station_lat":-33.8843525723301,"station_lon":150.961270675981},{"id":277,"station_id":"PST1409","station_name":"Turrella Station","station_lat":-33.9298286231105,"station_lon":151.140167174157},{"id":278,"station_id":"PST1410","station_name":"Bardwell Park Station","station_lat":-33.9314811505806,"station_lon":151.125049434779},{"id":279,"station_id":"PST1411","station_name":"Bexley North Station","station_lat":-33.9374738785398,"station_lon":151.11372885426},{"id":280,"station_id":"PST1412","station_name":"Kingsgrove Station","station_lat":-33.9405053782034,"station_lon":151.100664408588},{"id":281,"station_id":"PST1413","station_name":"Beverly Hills Station","station_lat":-33.9490526380255,"station_lon":151.081008429733},{"id":282,"station_id":"PST1414","station_name":"Narwee Station","station_lat":-33.9476092943231,"station_lon":151.070462963013},{"id":283,"station_id":"PST1415","station_name":"Riverwood Station","station_lat":-33.9514558196551,"station_lon":151.052222441543},{"id":284,"station_id":"PST1416","station_name":"Padstow Station","station_lat":-33.9518824796133,"station_lon":151.032402065885},{"id":285,"station_id":"PST1417","station_name":"Revesby Station","station_lat":-33.9524134362926,"station_lon":151.015083909962},{"id":286,"station_id":"PST1418","station_name":"Panania Station","station_lat":-33.9542654377782,"station_lon":150.998075974548},{"id":287,"station_id":"PST1419","station_name":"East Hills Station","station_lat":-33.9616443535897,"station_lon":150.984785468885},{"id":288,"station_id":"PST1420","station_name":"Holsworthy Station","station_lat":-33.9631643543406,"station_lon":150.956707286208},{"id":289,"station_id":"PST1421","station_name":"Redfern Station","station_lat":-33.8917706892092,"station_lon":151.198351443889},{"id":290,"station_id":"PST1423","station_name":"Coledale Station","station_lat":-34.2895359278159,"station_lon":150.943207979307},{"id":291,"station_id":"PST1425","station_name":"Dapto Station","station_lat":-34.4929501052904,"station_lon":150.791672918232},{"id":292,"station_id":"PST1426","station_name":"Macquarie University Station","station_lat":-33.7774651363023,"station_lon":151.11817870353},{"id":293,"station_id":"PST1427","station_name":"Macquarie Park Station","station_lat":-33.7850241701338,"station_lon":151.128425454885},{"id":294,"station_id":"PST1428","station_name":"North Ryde Station","station_lat":-33.7942163191117,"station_lon":151.138040504587},{"id":295,"station_id":"PST1429","station_name":"Epping Station","station_lat":-33.7729458135022,"station_lon":151.082324863533},{"id":296,"station_id":"PST1443","station_name":"St Peters Station","station_lat":-33.907218819407,"station_lon":151.180480638831},{"id":297,"station_id":"PST1446","station_name":"Shellharbour Junction","station_lat":-34.5913446677768,"station_lon":150.844773304476},{"id":298,"station_id":"PST1447","station_name":"Edmondson Park Station","station_lat":-33.9693044413569,"station_lon":150.858833167289},{"id":299,"station_id":"PST1448","station_name":"Leppington Station","station_lat":-33.9543377018721,"station_lon":150.80824049254},{"id":300,"station_id":"PST55000","station_name":"Broken Hill Station","station_lat":-31.95927411874,"station_lon":141.466662471779},{"id":301,"station_id":"PST55001","station_name":"Menindee Station","station_lat":-32.3893247391568,"station_lon":142.424601836472},{"id":302,"station_id":"PST55002","station_name":"Willow Tree Station","station_lat":-31.6500637354768,"station_lon":150.726122004019},{"id":303,"station_id":"PST55003","station_name":"Harden Station","station_lat":-34.5533486844068,"station_lon":148.371312404246},{"id":304,"station_id":"PST55004","station_name":"Darnick Station","station_lat":-32.8512105694263,"station_lon":143.624885527611},{"id":305,"station_id":"PST55005","station_name":"Murrurundi Station","station_lat":-31.7684225112599,"station_lon":150.839447228597},{"id":306,"station_id":"PST55006","station_name":"Dubbo Station","station_lat":-32.2450070439663,"station_lon":148.608174570908},{"id":307,"station_id":"PST55007","station_name":"Ivanhoe Station","station_lat":-32.914320472682,"station_lon":144.311660360793},{"id":308,"station_id":"PST55008","station_name":"Benalla Station","station_lat":-36.5445606567865,"station_lon":145.98407132878},{"id":309,"station_id":"PST55008","station_name":"Benalla Station, Platform 2","station_lat":-36.5446428269791,"station_lon":145.984193147575},{"id":310,"station_id":"PST55009","station_name":"Tamworth Station","station_lat":-31.0874197766064,"station_lon":150.930867911098},{"id":311,"station_id":"PST55010","station_name":"Melbourne (Southern Cross) Station","station_lat":-37.8176444720042,"station_lon":144.952759768547},{"id":312,"station_id":"PST55011","station_name":"Griffith Station","station_lat":-34.2868192987938,"station_lon":146.047728797313},{"id":313,"station_id":"PST55012","station_name":"Kootingal Station","station_lat":-31.0587309547438,"station_lon":151.056145650161},{"id":314,"station_id":"PST55013","station_name":"Geurie Station","station_lat":-32.3982766133479,"station_lon":148.830579604875},{"id":315,"station_id":"PST55014","station_name":"Yass Junction","station_lat":-34.808954914699,"station_lon":148.915234455526},{"id":316,"station_id":"PST55015","station_name":"Wangaratta Station","station_lat":-36.3548858756109,"station_lon":146.317274390592},{"id":317,"station_id":"PST55015","station_name":"Wangaratta Station, Platform 2","station_lat":-36.3549950715453,"station_lon":146.317451761894},{"id":318,"station_id":"PST55016","station_name":"Walcha Road Station","station_lat":-30.9411304630772,"station_lon":151.402209896065},{"id":319,"station_id":"PST55017","station_name":"Wellington Station","station_lat":-32.5539065819384,"station_lon":148.946730554759},{"id":320,"station_id":"PST55018","station_name":"Euabalong West Station","station_lat":-33.0547912211671,"station_lon":146.390898140217},{"id":321,"station_id":"PST55019","station_name":"Stuart Town Station","station_lat":-32.8011838283115,"station_lon":149.07831970929},{"id":322,"station_id":"PST55020","station_name":"Leeton Station","station_lat":-34.5543251994643,"station_lon":146.397651696997},{"id":323,"station_id":"PST55021","station_name":"Uralla Station","station_lat":-30.6440652670872,"station_lon":151.505052774128},{"id":324,"station_id":"PST55022","station_name":"Canberra Station","station_lat":-35.3192683696424,"station_lon":149.149391738699},{"id":325,"station_id":"PST55023","station_name":"Orange Station","station_lat":-33.2869832672014,"station_lon":149.103701614072},{"id":326,"station_id":"PST55024","station_name":"Narrandera Station","station_lat":-34.7405139301491,"station_lon":146.556998091527},{"id":327,"station_id":"PST55025","station_name":"Armidale Station","station_lat":-30.5152631864577,"station_lon":151.651699322045},{"id":328,"station_id":"PST55026","station_name":"Albury Station","station_lat":-36.0840633668779,"station_lon":146.924682236187},{"id":329,"station_id":"PST55027","station_name":"Queanbeyan Station","station_lat":-35.342809638985,"station_lon":149.227338245624},{"id":330,"station_id":"PST55028","station_name":"Gloucester Station","station_lat":-32.004683017152,"station_lon":151.966860667636},{"id":331,"station_id":"PST55029","station_name":"Henty Station","station_lat":-35.5178797952094,"station_lon":147.035368853141},{"id":332,"station_id":"PST55030","station_name":"Gunning Station","station_lat":-34.7797758812547,"station_lon":149.261118564925},{"id":333,"station_id":"PST55031","station_name":"Blayney Station","station_lat":-33.5270312968997,"station_lon":149.254508633154},{"id":334,"station_id":"PST55032","station_name":"Culcairn Station","station_lat":-35.6661021328185,"station_lon":147.038119013977},{"id":335,"station_id":"PST55033","station_name":"Wingham Station","station_lat":-31.868081744404,"station_lon":152.367631826321},{"id":336,"station_id":"PST55034","station_name":"Bungendore Station","station_lat":-35.2557125217019,"station_lon":149.446454017905},{"id":337,"station_id":"PST55035","station_name":"The Rock Station","station_lat":-35.271757242446,"station_lon":147.118297126417},{"id":338,"station_id":"PST55037","station_name":"Taree Station","station_lat":-31.906399340421,"station_lon":152.457122535655},{"id":339,"station_id":"PST55038","station_name":"Tarago Station","station_lat":-35.0700238978351,"station_lon":149.651390156505},{"id":340,"station_id":"PST55039","station_name":"Condobolin Station","station_lat":-33.0839034871814,"station_lon":147.153277666238},{"id":341,"station_id":"PST55040","station_name":"Kendall Station","station_lat":-31.6352642945226,"station_lon":152.706390900973},{"id":342,"station_id":"PST55041","station_name":"Coolamon Station","station_lat":-34.8160447217861,"station_lon":147.201857802859},{"id":343,"station_id":"PST55042","station_name":"Wagga Wagga Station","station_lat":-35.1204162332122,"station_lon":147.368445371262},{"id":344,"station_id":"PST55043","station_name":"Wauchope Station","station_lat":-31.4559056740939,"station_lon":152.736523002377},{"id":345,"station_id":"PST55044","station_name":"Narrabri Station","station_lat":-30.3253041758967,"station_lon":149.792116497166},{"id":346,"station_id":"PST55045","station_name":"Bellata Station","station_lat":-29.918297330456,"station_lon":149.79052731168},{"id":347,"station_id":"PST55046","station_name":"Kempsey Station","station_lat":-31.0768477628615,"station_lon":152.833036498213},{"id":348,"station_id":"PST55047","station_name":"Junee Station","station_lat":-34.8702515393435,"station_lon":147.583756313782},{"id":349,"station_id":"PST55048","station_name":"Tarana Station","station_lat":-33.5241056990867,"station_lon":149.907587268527},{"id":350,"station_id":"PST55049","station_name":"Eungai Station","station_lat":-30.8496967591028,"station_lon":152.900091953076},{"id":351,"station_id":"PST55050","station_name":"Cootamundra Station","station_lat":-34.6410318909153,"station_lon":148.03064771726},{"id":352,"station_id":"PST55051","station_name":"Moree Station","station_lat":-29.4738461913967,"station_lon":149.848159718319},{"id":353,"station_id":"PST55052","station_name":"Rydal Station","station_lat":-33.4836323277479,"station_lon":150.031824765338},{"id":354,"station_id":"PST55053","station_name":"Macksville Station","station_lat":-30.709417373381,"station_lon":152.913193636011},{"id":355,"station_id":"PST55054","station_name":"Boggabri Station","station_lat":-30.7038330538256,"station_lon":150.039825285338},{"id":356,"station_id":"PST55055","station_name":"Gunnedah Station","station_lat":-30.9792580636545,"station_lon":150.247931619543},{"id":357,"station_id":"PST55056","station_name":"Parkes Station","station_lat":-33.1421283725437,"station_lon":148.173183901074},{"id":358,"station_id":"PST55057","station_name":"Werris Creek Station","station_lat":-31.3501313086788,"station_lon":150.646460535106},{"id":359,"station_id":"PST55058","station_name":"Nambucca Heads Station","station_lat":-30.6291263872456,"station_lon":152.977468101028},{"id":360,"station_id":"PST55059","station_name":"Quirindi Station","station_lat":-31.5054915303568,"station_lon":150.68105083652},{"id":361,"station_id":"PST55060","station_name":"Coffs Harbour Station","station_lat":-30.3062113482577,"station_lon":153.137898787015},{"id":362,"station_id":"PST55061","station_name":"Brisbane (Roma Street) Station, Platform 2","station_lat":-27.4656026633835,"station_lon":153.019694368307},{"id":363,"station_id":"PST55062","station_name":"Casino Station","station_lat":-28.8606570587904,"station_lon":153.038275355739},{"id":364,"station_id":"PST55063","station_name":"Grafton Station","station_lat":-29.7038970267779,"station_lon":152.941691730554},{"id":365,"station_id":"PST55064","station_name":"Urunga Station, Platfrom 1","station_lat":-30.499647906365,"station_lon":153.018676605832},{"id":366,"station_id":"PST55065","station_name":"Sawtell Station","station_lat":-30.3594235390997,"station_lon":153.097420171881},{"id":367,"station_id":"PST55066","station_name":"Kyogle Station","station_lat":-28.6203442262326,"station_lon":153.001249527215},{"id":368,"station_id":"PST61800","station_name":"Broadmeadows Station, Platform 3","station_lat":-37.683030249255,"station_lon":144.919557050713},{"id":369,"station_id":"PST61801","station_name":"Seymour Station","station_lat":-37.0243177945389,"station_lon":145.138536755902}]